"id","region_id","name","latitude","longitude","order_num","show_at_zoom","show_on_main_map","show_on_voyage_map"
"10205","10200","Ilho do Fayal","38.566670000000002","-28.699999999999999","60121","0","f","t"
"10115","10100","Canary Islands","28.151076","-15.760399","60124","0","t","t"
"10116","10100","Tenerife","28.546032","-16.171644000000001","60125","0","t","t"
"10101","10100","Alicante","0","0","10101","0","f","f"
"10102","10100","Barcelona","41.383333","2.1833330000000002","10102","0","t","t"
"10103","10100","Bilbao","43.25","-2.9666670000000002","10103","0","t","t"
"10104","10100","Cadiz","36.533611000000001","-6.2994440000000003","10104","0","t","t"
"10105","10100","Figuera","0","0","10105","0","f","f"
"10106","10100","Gibraltar","36.133333299999997","-5.3499999999999996","10106","0","f","t"
"10107","10100","La Coruña","43.366667","-8.3833330000000004","10107","0","t","t"
"10110","10100","Santander","43.464722000000002","-3.8044440000000002","10110","0","t","t"
"10111","10100","Seville","37.377222000000003","-5.9869440000000003","10111","0","t","t"
"10112","10100","San Lucar","36.783332999999999","-6.3499999999999996","10112","0","t","t"
"10202","10200","Lagos","37.100000000000001","-8.6666670000000003","10202","0","f","t"
"10203","10200","Lisbon","38.716667000000001","-9.1333330000000004","10203","0","t","t"
"10204","10200","Oporto","41.149999999999999","-8.6166669999999996","10204","0","t","t"
"10299","10200","Portugal, port unspecified","38.716667000000001","-9.1333330000000004","10299","0","f","t"
"10399","10300","Great Britain, port unspecified","51.5","-0.11666700000000001","10399","0","f","t"
"10401","10400","Barmouth","0","0","10401","0","f","f"
"10402","10400","Bideford","0","0","10402","0","f","f"
"10403","10400","Birkenhead","0","0","10403","0","f","f"
"10404","10400","Bristol","51.450000000000003","-2.5833330000000001","10404","0","t","t"
"10405","10400","Brixham","0","0","10405","0","f","f"
"10406","10400","Broadstairs","51.366667","1.45","10406","0","t","f"
"10407","10400","Cawsand","0","0","10407","0","f","f"
"10408","10400","Chepstow","0","0","10408","0","f","f"
"10409","10400","Chester","53.200000000000003","-2.9166669999999999","10409","0","t","t"
"10410","10400","Colchester","51.883330000000001","0.90000000000000002","10410","0","f","t"
"10411","10400","Cowes","50.766666999999998","-1.3","10411","0","t","t"
"10412","10400","Dartmouth","50.350000000000001","-3.5833330000000001","10412","0","t","t"
"10413","10400","Deptford","0","0","10413","0","f","f"
"10414","10400","Dover","51.133333","1.3","10414","0","t","t"
"10415","10400","Exeter","50.700000000000003","-3.5333329999999998","10415","0","t","t"
"10416","10400","Folkstone","51.083333000000003","1.183333","10416","0","t","f"
"10417","10400","Frodsham","0","0","10417","0","f","f"
"10418","10400","Gainsborough","0","0","10418","0","f","f"
"10419","10400","Greenwich","0","0","10419","0","f","f"
"10420","10400","Guernsey","49.450000000000003","-2.5333329999999998","10420","0","t","t"
"10421","10400","Harwich","0","0","10421","0","f","f"
"10422","10400","Hull","53.716667000000001","-0.33333299999999999","10422","0","t","t"
"10423","10400","Ilfracombe","0","0","10423","0","f","f"
"10424","10400","Ipswich","52.083333000000003","1.1666669999999999","10424","0","t","f"
"10425","10400","Isle of Man","0","0","10425","0","f","f"
"10426","10400","Isle of Wight","0","0","10426","0","f","f"
"10427","10400","Jersey","0","0","10427","0","f","f"
"10428","10400","Kendal","54.316670000000002","-2.75","10428","0","f","t"
"10429","10400","King's Lynn","0","0","10429","0","f","f"
"10430","10400","Lancaster","54.066667000000002","-2.8333330000000001","10430","0","t","t"
"10431","10400","Lindale","0","0","10431","0","f","f"
"10432","10400","Liverpool","53.416666999999997","-3","10432","0","t","t"
"10433","10400","London","51.5","-0.11666700000000001","10433","0","t","t"
"10434","10400","Lyme","50.733333000000002","-2.9333330000000002","10434","0","t","t"
"10436","10400","Maryport","0","0","10436","0","f","f"
"10437","10400","Milford Haven","51.716667000000001","-5.0333329999999998","10437","0","t","t"
"10439","10400","Newcastle upon Tyne","54.988056","-1.6194440000000001","10439","0","t","t"
"10440","10400","Newnham","0","0","10440","0","f","f"
"10441","10400","North Shields","0","0","10441","0","f","f"
"10442","10400","Northam","0","0","10442","0","f","f"
"10443","10400","Norwich","0","0","10443","0","f","f"
"10444","10400","Padstowe","50.533332999999999","-4.9333330000000002","10444","0","t","t"
"10445","10400","Parkgate","54.716667000000001","-6.0999999999999996","10445","0","t","f"
"10446","10400","Piel of Foulney","0","0","10446","0","f","f"
"10447","10400","Plymouth","50.396388999999999","-4.138611","10447","0","t","t"
"10448","10400","Poole","50.716667000000001","-2","10448","0","t","t"
"10449","10400","Portsery","0","0","10449","0","f","f"
"10450","10400","Portsmouth","50.766666999999998","-1.0833330000000001","10450","0","t","t"
"10451","10400","Poulton","53.833333000000003","-2.983333","10451","0","t","t"
"10452","10400","Preston","53.766669999999998","-2.7200000000000002","10452","0","f","t"
"10453","10400","Ramsgate","0","0","10453","0","f","f"
"10454","10400","Ravenglass","0","0","10454","0","f","f"
"10455","10400","River Thames","51.426870000000001","0.40642","10455","0","t","f"
"10456","10400","Rochester","0","0","10456","0","f","f"
"10457","10400","Rotherhithe","0","0","10457","0","f","f"
"10458","10400","Rye","0","0","10458","0","f","f"
"10459","10400","Scarborough","0","0","10459","0","f","f"
"10460","10400","Sheerness","0","0","10460","0","f","f"
"10461","10400","Shields","0","0","10461","0","f","f"
"10463","10400","Sidmouth","0","0","10463","0","f","f"
"10464","10400","Southampton","50.899999999999999","-1.3999999999999999","10464","0","t","f"
"10466","10400","Stockton","54.583329999999997","-1.4199999999999999","10466","0","f","t"
"10467","10400","Stockwithe","0","0","10467","0","f","f"
"10468","10400","Sunderland","0","0","10468","0","f","f"
"10469","10400","Teignmouth","0","0","10469","0","f","f"
"10470","10400","Topsham","50.683329999999998","-3.4500000000000002","10470","0","f","t"
"10471","10400","Torbay","0","0","10471","0","f","f"
"10472","10400","Wales","52.357337000000001","-3.6843119999999998","10472","0","t","t"
"10473","10400","Whitby","54.486666999999997","-0.63055600000000001","10473","0","t","f"
"10474","10400","Whitehaven","54.549999999999997","-3.6000000000000001","10474","0","t","t"
"10476","10400","Workington","0","0","10476","0","f","f"
"10477","10400","Yarmouth","50.700000000000003","-1.5","10477","0","t","f"
"10478","10400","Youghal","0","0","10478","0","f","f"
"10479","10400","Conway","0","0","10479","0","f","f"
"10480","10400","Falmouth (Eng.)","50.155990000000003","-5.0710600000000001","10480","0","f","t"
"10499","10400","England, port unspecified","51.5","-0.11666700000000001","10499","0","f","t"
"10501","10500","Airth","0","0","10501","0","f","f"
"10502","10500","Borrowstounness","0","0","10502","0","f","f"
"10503","10500","Dundee","0","0","10503","0","f","f"
"10504","10500","Glasgow","55.833333000000003","-4.25","10504","0","t","t"
"10505","10500","Greenock","55.933332999999998","-4.75","10505","0","t","t"
"10506","10500","Leith","55.950000000000003","-3.1666669999999999","10506","0","t","t"
"10507","10500","Lough Neagh","0","0","10507","0","f","f"
"10508","10500","Montrose","56.700000000000003","-2.4500000000000002","10508","0","t","t"
"10509","10500","Ross","0","0","10509","0","f","f"
"10510","10500","Saltcoats","0","0","10510","0","f","f"
"10511","10500","Largo, Fifeshire","0","0","10511","0","f","f"
"10599","10500","Scotland, port unspecified","56.780360000000002","-4.0099999999999998","10599","0","f","t"
"10601","10600","Cork","51.898611000000002","-8.4958329999999993","10601","0","t","t"
"10602","10600","Dublin","52.574444","-7.5502779999999996","10602","0","t","t"
"10603","10600","Dungarvan","0","0","10603","0","f","f"
"10604","10600","Galway","53.271943999999998","-9.0488890000000008","10604","0","t","f"
"10605","10600","Kinsale","51.706440000000001","-8.5233100000000004","10605","0","f","t"
"10606","10600","Limerick","52.662219999999998","-8.6665200000000002","10606","0","f","t"
"10607","10600","Londonderry","0","0","10607","0","f","f"
"10608","10600","Ringsend","54.794722","-7.5913890000000004","10608","0","t","f"
"10609","10600","Strangford","0","0","10609","0","f","f"
"10610","10600","Waterford","52.258330000000001","-7.1100000000000003","10610","0","f","t"
"10611","10600","Wexford","0","0","10611","0","f","f"
"10699","10600","Ireland, port unspecified","0","0","10699","0","f","f"
"10702","10700","Bayonne","43.483333000000002","-1.483333","10702","0","t","t"
"10703","10700","Bordeaux","44.833333000000003","-0.56666700000000003","10703","0","t","t"
"10704","10700","Brest","48.399999999999999","-4.483333","10704","0","t","t"
"10705","10700","Calais","0","0","10705","0","f","f"
"10706","10700","Camaret","47.744199999999999","-2.6393200000000001","10706","0","f","t"
"10707","10700","Dieppe","49.933332999999998","1.0833330000000001","10707","0","t","t"
"10708","10700","Dinard","48.630549999999999","-2.0632000000000001","10708","0","f","t"
"10709","10700","Dunkerque","51.049999999999997","2.3666670000000001","10709","0","t","t"
"10710","10700","Honfleur","49.416666999999997","0.23333300000000001","10710","0","t","t"
"10711","10700","Ile de Batz","48.745460000000001","-4.0173699999999997","10711","0","f","t"
"10712","10700","La Rochelle","46.166666999999997","-1.1499999999999999","10712","0","t","t"
"10713","10700","Le Havre","49.5","0.13333300000000001","10713","0","t","t"
"10714","10700","Les Sables","47.062840000000001","-1.9823200000000001","10714","0","f","t"
"10715","10700","Lorient","47.75","-3.3666670000000001","10715","0","t","t"
"10717","10700","Mediterranean coast (France)","43.299999999999997","5.4000000000000004","10717","0","f","t"
"10718","10700","Mindin","47.266666999999998","-2.1666669999999999","10718","0","t","t"
"10719","10700","Morlaix","48.583333000000003","-3.8333330000000001","10719","0","t","t"
"10720","10700","Nantes","47.216667000000001","-1.55","10720","0","t","t"
"10721","10700","Paimboeuf","47.283332999999999","-2.0333329999999998","10721","0","t","f"
"10722","10700","Port Louis","47.708379999999998","-3.3558699999999999","10722","0","f","t"
"10723","10700","Quimper","0","0","10723","0","f","f"
"10724","10700","Rochefort","45.933332999999998","-0.98333300000000001","10724","0","t","t"
"10725","10700","Saint-Brieuc","48.516669999999998","-2.7799999999999998","10725","0","f","t"
"10726","10700","Saint-Malo","48.649999999999999","-2.016667","10726","0","t","t"
"10727","10700","Saint-Nazaire","47.274320000000003","-2.2136100000000001","10727","0","f","t"
"10728","10700","Saint-Tropez","0","0","10728","0","f","f"
"10729","10700","Sète","43.401760000000003","3.6966000000000001","10729","0","f","t"
"10730","10700","Vannes","47.666666999999997","-2.75","10730","0","t","t"
"10799","10700","France, port unspecified","47.216667000000001","-1.55","10799","0","f","t"
"10810","10800","Amsterdam","52.350000000000001","4.9166670000000003","10810","0","t","t"
"10821","10800","Enkhuizen","52.716670000000001","5.2800000000000002","10821","0","f","t"
"10822","10800","Hoorn ","0","0","10822","0","f","f"
"10828","10800","Zuider Zee","52.54562","5.2699999999999996","10828","0","f","t"
"10829","10800","Texel","53.149334000000003","4.8199139999999998","10829","0","t","t"
"10830","10800","Rotterdam","51.916666999999997","4.5","10830","0","t","t"
"10831","10800","Dordrecht","51.799999999999997","4.6699999999999999","10831","0","f","t"
"10832","10800","Maze","51.751399999999997","4.5986000000000002","10832","0","f","t"
"10833","10800","Moerdijk","51.702019999999997","4.62737","10833","0","f","t"
"10834","10800","Hellevoetsluis","51.833333000000003","4.1333330000000004","10834","0","t","t"
"10840","10800","Zeeland","51.496474999999997","3.7710910000000002","10840","0","t","t"
"10851","10800","Vlissingen","51.450000000000003","3.5833330000000001","10851","0","t","t"
"10860","10800","Groningen","53.216670000000001","6.5499999999999998","10860","0","f","t"
"10899","10800","Netherlands, port unspecified","53.149334000000003","4.8199139999999998","10899","0","f","t"
"10901","10900","Copenhagen","55.666666999999997","12.583333","10901","0","t","t"
"10902","10900","Husum","55.066670000000002","8.6799999999999997","10902","0","f","t"
"10999","10900","Denmark, port unspecified","0","0","10999","0","f","f"
"11001","11000","Pillau","54.65222","19.91","11001","0","f","t"
"11002","11000","Elbe","53.549999999999997","10","11002","0","f","t"
"11003","11000","Emden","53.366667","7.2166670000000002","11003","0","t","t"
"11004","11000","Hamburg","53.549999999999997","10","11004","0","t","t"
"11101","11100","Antwerp","51.216667000000001","4.4166670000000003","11101","0","t","t"
"11102","11100","Flanders","0","0","11102","0","f","f"
"11199","11100","Belgium, port unspecified","51.216667000000001","4.4166670000000003","11199","0","f","t"
"11201","11200","Tonsberg","59.285800000000002","10.42","11201","0","f","t"
"11202","11200","Bergen","0","0","11202","0","f","f"
"11301","11300","Gothenberg","57.716670000000001","11.970000000000001","11301","0","f","t"
"11399","11300","Sweden, port unspecified","0","0","11399","0","f","f"
"11401","11400","Genoa","0","0","11401","0","f","f"
"11402","11400","Naples","40.833333000000003","14.25","11402","0","t","f"
"11403","11400","Point Askaig","0","0","11403","0","f","f"
"11404","11400","Trieste","45.648609999999998","13.779999999999999","11404","0","f","t"
"11501","11500","Cronstadt","0","0","11501","0","f","f"
"11502","11500","Odessa","46.466667000000001","30.733329999999999","11502","0","f","t"
"11699","11600","Mediterranean, port unspecified","0","0","11699","0","f","f"
"20101","20100","Bristol (RI)","41.676900000000003","-71.2667","20101","0","t","t"
"20102","20100","Little Compton","0","0","20102","0","f","f"
"20103","20100","Newport","41.490000000000002","-71.313299999999998","20103","0","t","t"
"20104","20100","North Kingston","41.554009999999998","-71.467960000000005","20104","0","f","t"
"20105","20100","Providence","41.823900000000002","-71.413300000000007","20105","0","t","t"
"20106","20100","Tiverton","0","0","20106","0","f","f"
"20107","20100","Warren","41.7303","-71.283100000000005","20107","0","t","t"
"20201","20200","Bath","0","0","20201","0","f","f"
"20202","20200","Berwick","0","0","20202","0","f","f"
"20203","20200","Biddeford","0","0","20203","0","f","f"
"20204","20200","Calais","0","0","20204","0","f","f"
"20205","20200","Camden","0","0","20205","0","f","f"
"20207","20200","Freeport","0","0","20207","0","f","f"
"20208","20200","Portland","43.659170000000003","-70.256649999999993","20208","0","f","t"
"20209","20200","Prospect","0","0","20209","0","f","f"
"20210","20200","Richmond","0","0","20210","0","f","f"
"20211","20200","Robbinston","0","0","20211","0","f","f"
"20212","20200","Rockland","0","0","20212","0","f","f"
"20213","20200","Sheepscutt River","43.905093999999998","-69.688395999999997","20213","0","t","f"
"20214","20200","Wiscasset","0","0","20214","0","f","f"
"20301","20300","Piscataqua","43.100560000000002","-70.793329999999997","20301","0","t","t"
"20302","20300","Portsmouth (NH)","43.0717","-70.763099999999994","20302","0","t","t"
"20399","20300","New Hampshire, port unspecified","43.0717","-70.763099999999994","20399","0","f","t"
"20401","20400","Massachusetts Bay","41.774217","-70.505365999999995","20401","0","t","f"
"20402","20400","Amesbury","42.858330000000002","-70.93056","20402","0","t","f"
"20403","20400","Arundel","0","0","20403","0","f","f"
"20404","20400","Boston","42.361657000000001","-71.059466999999998","20404","0","t","t"
"20405","20400","Chatham","0","0","20405","0","f","f"
"20406","20400","Cohasset","0","0","20406","0","f","f"
"20407","20400","Dighton","41.813890000000001","-71.120829999999998","20407","0","t","f"
"20408","20400","Duxbury","42.041670000000003","-70.672780000000003","20408","0","t","f"
"20409","20400","Freetown (Mass.)","0","0","20409","0","f","f"
"20410","20400","Georgetown","0","0","20410","0","f","f"
"20411","20400","Hingham","0","0","20411","0","f","f"
"20412","20400","Kingston (Mass.)","0","0","20412","0","f","f"
"20413","20400","Marblehead","42.503169999999997","-70.856589999999997","20413","0","f","t"
"20414","20400","Marshfield","0","0","20414","0","f","f"
"20415","20400","New Bedford","41.637680000000003","-70.930819999999997","20415","0","f","t"
"20416","20400","Newbury","42.8125","-70.877799999999993","20416","0","t","t"
"20417","20400","Salem","42.519399999999997","-70.897199999999998","20417","0","t","t"
"20418","20400","Salisbury","0","0","20418","0","f","f"
"20419","20400","Salfatudas","0","0","20419","0","f","f"
"20420","20400","Scituate","0","0","20420","0","f","f"
"20421","20400","Swansea","41.748060000000002","-71.190280000000001","20421","0","t","f"
"20422","20400","Weymouth","0","0","20422","0","f","f"
"20423","20400","Charlestown","42.377800000000001","-71.060000000000002","20423","0","f","t"
"20499","20400","Massachusetts, port unspecified","42.361657000000001","-71.059466999999998","20499","0","f","t"
"20501","20500","Bridgeport","0","0","20501","0","f","f"
"20502","20500","Guildford","0","0","20502","0","f","f"
"20503","20500","Haddam","0","0","20503","0","f","f"
"20504","20500","New Haven","41.308100000000003","-72.930000000000007","20504","0","f","t"
"20505","20500","New London","41.355600000000003","-72.099999999999994","20505","0","t","t"
"20506","20500","Middletown","41.562690000000003","-72.649810000000002","20506","0","f","t"
"20507","20500","Hartford","0","0","20507","0","f","f"
"20599","20500","Connecticut, port unspecified","0","0","20599","0","f","f"
"20601","20600","Brookhaven","0","0","20601","0","f","f"
"20602","20600","Long Island","0","0","20602","0","f","f"
"20603","20600","Sag Harbor","0","0","20603","0","f","f"
"20799","20700","Delaware, port unspecified","0","0","20799","0","f","f"
"20801","20800","Delaware River","39.420278000000003","-75.519722000000002","20801","0","f","t"
"20802","20800","Eastern New Jersey","39.362760000000002","-74.426429999999996","20802","0","f","t"
"20803","20800","Milwell","0","0","20803","0","f","f"
"20804","20800","Perth Amboy","40.506450000000001","-74.265770000000003","20804","0","f","t"
"20805","20800","Wharton","0","0","20805","0","f","f"
"20899","20800","New Jersey, port unspecified","0","0","20899","0","f","f"
"20901","20900","Marcus Hook","0","0","20901","0","f","f"
"20902","20900","Philadelphia","39.952199999999998","-75.164199999999994","20902","0","t","t"
"20999","20900","Pennsylvania, port unspecified","0","0","20999","0","f","f"
"21001","21000","Annapolis","38.949894","-76.485242999999997","21001","0","t","t"
"21002","21000","Baltimore","39.290300000000002","-76.612499999999997","21002","0","t","t"
"21003","21000","North Potomac","38.852156999999998","-77.027213000000003","21003","0","t","t"
"21005","21000","Pamunkey","37.669170000000001","-77.204440000000005","21005","0","t","f"
"21006","21000","Patuxent","38.308968","-76.451227000000003","21006","0","t","t"
"21007","21000","Talbot County","0","0","21007","0","f","f"
"21008","21000","Wye River","38.858249999999998","-76.180000000000007","21008","0","f","t"
"21099","21000","Maryland, port unspecified","38.308968","-76.451227000000003","21099","0","f","t"
"21101","21100","Elizabeth River","36.934691000000001","-76.356374000000002","21101","0","t","f"
"21102","21100","Hampton","37.029699999999998","-76.345600000000005","21102","0","t","t"
"21103","21100","Lower James River","36.950020000000002","-76.382921999999994","21103","0","t","t"
"21104","21100","Norfolk","36.932949999999998","-76.193248999999994","21104","0","t","t"
"21105","21100","Northampton County","0","0","21105","0","f","f"
"21106","21100","Potomac river","37.918729999999996","-76.269999999999996","21106","0","f","t"
"21107","21100","Rappahannock","37.598258000000001","-76.388132999999996","21107","0","t","t"
"21108","21100","South Potomac","38.103943999999998","-76.520773000000005","21108","0","t","t"
"21109","21100","Upper James River","37.518397999999998","-77.427419","21109","0","t","t"
"21110","21100","Williamsburg","0","0","21110","0","f","f"
"21111","21100","York River","37.226795000000003","-76.453762999999995","21111","0","t","t"
"21112","21100","Vatt (location undetermined)","0","0","21112","0","f","f"
"21199","21100","Virginia, port unspecified","37.226795000000003","-76.453762999999995","21199","0","f","t"
"21201","21200","Bertie County","0","0","21201","0","f","f"
"21202","21200","Chowan river","36.242851000000002","-76.706179000000006","21202","0","t","f"
"21204","21200","Hyde County","0","0","21204","0","f","f"
"21205","21200","Roanoke","35.883685","-75.649503999999993","21205","0","t","t"
"21299","21200","North Carolina, port unspecified","35.883685","-75.649503999999993","21299","0","f","t"
"21301","21300","Beaufort","32.43139","-80.670000000000002","21301","0","t","t"
"21302","21300","Charleston","32.780960999999998","-79.935535000000002","21302","0","t","t"
"21401","21400","Savannah","32.083300000000001","-81.099999999999994","21401","0","t","t"
"21402","21400","Sunbury","0","0","21402","0","f","f"
"21499","21400","Georgia, port unspecified","32.083300000000001","-81.099999999999994","21499","0","f","t"
"21501","21500","St. Augustine","29.894400000000001","-81.314700000000002","21501","0","t","t"
"21502","21500","Pensacola","30.558122999999998","-87.181495999999996","21502","0","t","t"
"21503","21500","Amelia Island","30.687000000000001","-81.441999999999993","21503","0","t","t"
"21599","21500","Florida, port unspecified","29.894400000000001","-81.314700000000002","21599","0","f","t"
"21601","21600","New Orleans","29.954440000000002","-90.075000000000003","21601","0","t","t"
"21602","21600","La Balise","29.122199999999999","-89.107200000000006","21602","0","t","t"
"21603","21600","Louisiana","29.52468","-92.670000000000002","21603","0","f","t"
"21604","21600","Biloxi","30.391952","-88.949931000000007","21604","0","t","t"
"21605","21600","Mississippi","30.305009999999999","-89.280000000000001","21605","0","f","t"
"21606","21600","Mobile","30.694444000000001","-88.043056000000007","21606","0","f","t"
"21701","21700","Quebec","46.799999999999997","-71.25","21701","0","t","f"
"21702","21700","New Brunswick","46.775564000000003","-65.217796000000007","21702","0","t","f"
"21703","21700","St. John","0","0","21703","0","f","f"
"21704","21700","Newfoundland","48.343640999999998","-57.424574","21704","0","t","f"
"21705","21700","Nova Scotia","44.877366000000002","-63.873730999999999","21705","0","t","f"
"21706","21700","Halifax","44.649999999999999","-63.600000000000001","21706","0","t","f"
"21707","21700","Mahone Bay","44.566420000000001","-64.307584000000006","21707","0","t","f"
"21901","21900","Newport and Boston","0","0","21901","0","f","f"
"21902","21900","Newport and Salem","0","0","21902","0","f","f"
"21903","21900","New England","44.12283","-69.170000000000002","21903","0","f","t"
"31102","31100","Isabela","18.449999999999999","-71.25","31102","0","f","t"
"31103","31100","Monte Christi","19.866667","-71.650000000000006","31103","0","t","t"
"31104","31100","Samana","19.216670000000001","-69.319999999999993","31104","0","f","t"
"31201","31200","San Juan","18.466329999999999","-66.105720000000005","31201","0","f","t"
"31301","31300","Bahia Honda","22.903611000000001","-83.159166999999997","31301","0","t","t"
"31302","31300","Banes","20.962499999999999","-75.718610999999996","31302","0","t","t"
"31303","31300","Cabanas","22.975833000000002","-82.921943999999996","31303","0","t","t"
"31304","31300","Caibarien","22.52056","-79.466939999999994","31304","0","f","t"
"31305","31300","Canasí","23.112500000000001","-81.781389000000004","31305","0","t","t"
"31306","31300","Cardenas","23.037500000000001","-81.204722000000004","31306","0","t","t"
"31307","31300","Cienfuegos","22.146111000000001","-80.435556000000005","31307","0","t","t"
"31309","31300","Cuba, west coast","22.919450000000001","-83.380272000000005","31309","0","t","t"
"31310","31300","Estuary of River Guane","22.200555999999999","-84.083888999999999","31310","0","f","t"
"31311","31300","Guanimar","22.688333","-82.653610999999998","31311","0","t","t"
"31312","31300","Havana","23.131944000000001","-82.364166999999995","31312","0","t","t"
"31313","31300","Isla de Pinas","21.683306999999999","-82.824048000000005","31313","0","t","t"
"31314","31300","Magari, Manzanillo","20.343333000000001","-77.116667000000007","31314","0","t","t"
"31315","31300","Mariel","22.987500000000001","-82.753611000000006","31315","0","t","t"
"31316","31300","Matanzas","23.041111000000001","-81.577500000000001","31316","0","t","t"
"31317","31300","Matanzas province, north","23.041111000000001","-81.577500000000001","31317","0","f","t"
"31318","31300","Matanzas province, south","23.041111000000001","-81.577500000000001","31318","0","f","t"
"31319","31300","Nuevitas","21.545280000000002","-77.264439999999993","31319","0","f","t"
"31320","31300","Puerto Padre","21.195","-76.602778000000001","31320","0","t","t"
"31321","31300","Sagua","22.806667000000001","-80.075556000000006","31321","0","t","t"
"31322","31300","San Juan de los Remedios","22.494721999999999","-79.545833000000002","31322","0","t","t"
"31323","31300","Santiago de Cuba","20.024722000000001","-75.821944000000002","31323","0","t","t"
"31324","31300","Trinidad de Cuba","21.801943999999999","-79.984166999999999","31324","0","t","t"
"32110","32100","Curaçao","12.1","-68.916667000000004","32110","0","t","t"
"32120","32100","Aruba","12.51667","-70.033330000000007","32120","0","f","t"
"32140","32100","St. Maarten","18.100000000000001","-63.033332999999999","32140","0","t","t"
"32141","32100","Cul de Sac (St. Maarten)","18.100000000000001","-63.030000000000001","32141","0","f","t"
"32150","32100","St. Eustatius","17.466667000000001","-62.983333000000002","32150","0","t","t"
"32199","32100","Dutch Caribbean, colony unspecified","12.1","-68.916667000000004","32199","0","f","t"
"32201","32200","Guiana","5.9585939999999997","-55.675989999999999","32201","0","f","t"
"32202","32200","Nova Zeelandia (Wild Coast)","5.9585939999999997","-55.675989999999999","32202","0","f","t"
"32230","32200","Essequibo","7.0439590000000001","-58.354792000000003","32230","0","t","t"
"32241","32200","Paramaribo","5.8333329999999997","-55.166666999999997","32241","0","t","t"
"32299","32200","Dutch Guianas, colony unspecified","5.9585939999999997","-55.675989999999999","32299","0","f","t"
"32399","32300","Other Dutch Americas, colony unspecified","0","0","32399","0","f","f"
"33399","33300","Anguilla, port unspecified","18.216670000000001","-63.049999999999997","33399","0","f","t"
"33499","33400","Antigua, port unspecified","17.116669999999999","-61.850000000000001","33499","0","f","t"
"33699","33600","Nevis, port unspecified","17.199999999999999","-62.583333000000003","33699","0","f","t"
"34201","34200","Kings Harbour","13.1","-59.619999999999997","34201","0","f","t"
"34601","34600","Zion Hill","11.233333","-60.616667","34601","0","t","t"
"34699","34600","Tobago, port unspecified","11.25","-60.666670000000003","34699","0","f","t"
"35101","35100","Annotta Bay","18.266670000000001","-76.766670000000005","35101","0","f","t"
"35102","35100","Antonia","18.183333000000001","-76.466667000000001","35102","0","t","t"
"35103","35100","Black River","18.016667000000002","-77.849999999999994","35103","0","t","t"
"35104","35100","Falmouth (Jam.)","18.5","-77.650000000000006","35104","0","t","t"
"35105","35100","Lucea","18.449999999999999","-78.166667000000004","35105","0","t","t"
"35106","35100","Martha Brae","18.466667000000001","-77.650000000000006","35106","0","t","t"
"35107","35100","Montego Bay","18.466667000000001","-77.916667000000004","35107","0","t","t"
"35108","35100","Morant Bay","17.883330000000001","-76.420000000000002","35108","0","f","t"
"35109","35100","Port Maria","18.366667","-76.900000000000006","35109","0","t","t"
"35111","35100","Saint Ann's Bay","18.433333000000001","-77.200000000000003","35111","0","t","t"
"35112","35100","Savanna la Mar","18.216667000000001","-78.133332999999993","35112","0","t","t"
"35113","35100","Spanish Town","17.983329999999999","-76.950000000000003","35113","0","f","t"
"35114","35100","Kingston","18","-76.799999999999997","35114","0","t","t"
"35199","35100","Jamaica, port unspecified","18","-76.799999999999997","35199","0","f","t"
"35201","35200","New Providence","24.993639999999999","-77.396828999999997","35201","0","t","t"
"35202","35200","Turk's Island","21.399999999999999","-71.116669999999999","35202","0","f","t"
"35203","35200","Nassau","25.076063999999999","-77.381078000000002","35203","0","t","t"
"35301","35300","Cumingsberg","6.8166669999999998","-58.166666999999997","35301","0","t","t"
"35302","35300","Stabroek","6.8166669999999998","-58.149999999999999","35302","0","f","t"
"35304","35300","Demerara","6.7199999999999998","-58.369999999999997","35304","0","t","t"
"35305","35300","Kingston (Demerera)","6.8166669999999998","-58.170000000000002","35305","0","f","t"
"35401","35400","Mosquito Shore","14.033329999999999","-83.383330000000001","35401","0","f","t"
"35402","35400","Trujillo","15.91667","-86","35402","0","f","t"
"35499","35400","Honduras, port unspecified","15.91667","-86","35499","0","f","t"
"35502","35500","Antigua or Dominica","0","0","35502","0","f","f"
"35503","35500","Barbados and Jamaica","0","0","35503","0","f","f"
"35504","35500","Dominica or Jamaica","0","0","35504","0","f","f"
"35505","35500","Jamaica or St. Kitts","0","0","35505","0","f","f"
"35507","35500","British Leewards","18.216670000000001","-63.049999999999997","35507","0","f","t"
"35599","35500","British Caribbean, colony unspecified","18","-76.799999999999997","35599","0","f","t"
"36101","36100","Fort-Royale","14.6","-61.083329999999997","36101","0","f","t"
"36102","36100","Saint-Pierre","14.73333","-61.166670000000003","36102","0","f","t"
"36201","36200","Basse-Terre","16","-61.716667000000001","36201","0","t","t"
"36202","36200","Pointe-à-Pitre","16.233332999999998","-61.516666999999998","36202","0","t","t"
"36203","36200","Marie-Galante","15.93333","-61.266669999999998","36203","0","f","t"
"36301","36300","Cayenne","4.9333330000000002","-52.333333000000003","36301","0","t","t"
"36302","36300","Oyapock","3.8999999999999999","-51.799999999999997","36302","0","f","t"
"36401","36400","Tortuga","20.046337999999999","-72.786671999999996","36401","0","t","t"
"36404","36400","Cayes (Les)","18.199999999999999","-73.75","36404","0","t","t"
"36405","36400","Cul-de-Sac","19.066666999999999","-72.366667000000007","36405","0","t","t"
"36406","36400","Fort Dauphin","19.667777999999998","-71.839721999999995","36406","0","t","t"
"36407","36400","Jacmel","18.234166999999999","-72.534722000000002","36407","0","t","t"
"36408","36400","Jérémie","18.649999999999999","-74.116667000000007","36408","0","t","t"
"36409","36400","Léogane","18.510833000000002","-72.633888999999996","36409","0","t","t"
"36411","36400","Petit-Goâve","18.431388999999999","-72.866944000000004","36411","0","t","t"
"36412","36400","Port-au-Prince","18.539166999999999","-72.334999999999994","36412","0","t","t"
"36413","36400","Port-de-Paix","19.932763999999999","-72.830871000000002","36413","0","t","t"
"36414","36400","Saint-Marc","19.116667","-72.700000000000003","36414","0","t","t"
"36499","36400","Saint-Domingue, port unspecified","19.757777999999998","-72.204166999999998","36499","0","f","t"
"36599","36500","French Caribbean, colony unspecified","19.757777999999998","-72.204166999999998","36599","0","f","t"
"39001","39000","Caribbean (colony unspecified)","20","-70","39001","0","f","t"
"39002","39000","West Indies (colony unspecified)","20","-70","39002","0","f","t"
"41202","41200","Campeche","19.850000000000001","-90.533332999999999","41202","0","t","t"
"41205","41200","Santo Tomas","15.699999999999999","-88.616667000000007","41205","0","f","t"
"41206","41200","Portobelo","9.5500000000000007","-79.650000000000006","41206","0","t","t"
"41207","41200","Cartagena","10.399722000000001","-75.514439999999993","41207","0","t","t"
"41208","41200","Santa Marta","11.247222000000001","-74.201667","41208","0","t","t"
"41210","41200","Venezuela","10.44528","-67.964439999999996","41210","0","f","t"
"41211","41200","Borburata","10.44528","-67.964439999999996","41211","0","f","t"
"41212","41200","Caracas","10.5","-66.916667000000004","41212","0","t","t"
"41213","41200","Cumana","10.466670000000001","-64.166669999999996","41213","0","t","t"
"41216","41200","Orinoko","8.8634260000000005","-60.539999999999999","41216","0","f","t"
"41217","41200","Rio de la Hacha","11.54444","-72.907222000000004","41217","0","t","t"
"42001","42000","Buenos Aires","-34.587499999999999","-58.672499999999999","42001","0","t","t"
"42002","42000","Montevideo","-34.858055999999998","-56.170833000000002","42002","0","t","t"
"42003","42000","Colonia de Sacramento","-34.466700000000003","-57.850000000000001","42003","0","f","t"
"42004","42000","Maldonado","-34.899999999999999","-54.950000000000003","42004","0","f","t"
"42099","42000","Rio de la Plata, port unspecified","0","0","42099","0","f","f"
"43001","43000","Lima","0","0","43001","0","f","f"
"50103","50100","Pará","-1.45","-48.483333000000002","50103","0","t","t"
"50104","50100","Guajano","0","0","50104","0","f","f"
"50105","50100","Rio Amazona","0","0","50105","0","f","f"
"50201","50200","Pôrto Seguro","-16.671790000000001","-39.264180000000003","50201","0","f","t"
"50202","50200","Rio Real","-11.449999999999999","-37.366669999999999","50202","0","f","t"
"50203","50200","Rio São Francisco","-9.3318999999999992","-38.260399999999997","50203","0","f","t"
"50301","50300","Alagoas province","-9.7836200000000009","-35.850000000000001","50301","0","f","t"
"50302","50300","Ilha de Itamaric ","-7.7577249999999998","-34.850636999999999","50302","0","t","t"
"50303","50300","Maceió","-9.6666699999999999","-35.719999999999999","50303","0","f","t"
"50304","50300","Catuamo and Maria Farinha","-7.8499999999999996","-34.833333000000003","50304","0","t","t"
"50305","50300","Porto de Galinhas","-8.0538900000000009","-34.88111","50305","0","f","t"
"50306","50300","Paraíba","-6.7802749999999996","-34.942160000000001","50306","0","t","t"
"50307","50300","Rio Grande do Norte","-5.7949999999999999","-35.209440000000001","50307","0","f","t"
"50309","50300","Fernando de Noronha","0","0","50309","0","f","f"
"50402","50400","Baía de Botafogo","-22.899999999999999","-43.233333000000002","50402","0","f","t"
"50403","50400","Baía de Sepetiba","-22.981670000000001","-43.700830000000003","50403","0","f","t"
"50404","50400","Cabo de Búzios","-22.77","-41.960000000000001","50404","0","t","t"
"50405","50400","Cabo Frio","-22.883333","-42.016666999999998","50405","0","t","t"
"50406","50400","Campos","-21.75","-41.299999999999997","50406","0","t","t"
"50407","50400","Cananéia","-25.0167","-47.950000000000003","50407","0","f","t"
"50408","50400","Copacabana","-22.966667000000001","-43.183332999999998","50408","0","t","t"
"50409","50400","Dois Rios","-23.183330000000002","-44.183329999999998","50409","0","f","t"
"50410","50400","Ilha de Paquetá ","-22.759440000000001","-43.109169999999999","50410","0","f","t"
"50411","50400","Ilha das Palmas","-23.5395","-45.060000000000002","50411","0","f","t"
"50412","50400","Ilha Grande","-23.150321999999999","-44.237842000000001","50412","0","t","t"
"50413","50400","Ilha de Lobes","-29.333333","-49.700000000000003","50413","0","f","t"
"50414","50400","Ilha de Marambaia","-22.999302","-43.926937000000002","50414","0","t","t"
"50416","50400","Macaé","-22.383333","-41.783332999999999","50416","0","t","t"
"50417","50400","Mangaratiba","-22.949999999999999","-44.033332999999999","50417","0","t","t"
"50418","50400","Maricá","-22.916667","-42.816667000000002","50418","0","t","t"
"50419","50400","Paranaguá","-25.516667000000002","-48.5","50419","0","t","t"
"50420","50400","Parati","-23.216667000000001","-44.716667000000001","50420","0","t","t"
"50421","50400","Ponta Negro","-5.8833330000000004","-35.166666999999997","50421","0","t","t"
"50422","50400","Rio de Janeiro","-22.899999999999999","-43.233333000000002","50422","0","t","t"
"50426","50400","Rio Grande do Sul Province","-30.033332999999999","-51.200000000000003","50426","0","t","t"
"50427","50400","Rio São Jeso","-24.072327999999999","-46.689081000000002","50427","0","t","t"
"50428","50400","Santos","-23.949999999999999","-46.333333000000003","50428","0","t","t"
"50430","50400","São Sebastião","-23.800000000000001","-45.416666999999997","50430","0","t","t"
"50431","50400","Santa Catarina","-27.459717999999999","-48.471846999999997","50431","0","t","t"
"50433","50400","Ubatuba","-23.433333000000001","-45.066667000000002","50433","0","t","t"
"50434","50400","Vitória","-20.316666999999999","-40.350000000000001","50434","0","t","t"
"50499","50400","Southeast Brazil, port unspecified","0","0","50499","0","f","f"
"60101","60100","Albreda","13.334444","-16.386666999999999","60101","0","t","t"
"60102","60100","Arguim","20.595690000000001","-16.460000000000001","60102","0","f","t"
"60103","60100","Bissagos","11.20143","-16.120366000000001","60103","0","t","t"
"60104","60100","Bissau","11.85","-15.583333","60104","0","t","t"
"60105","60100","Cacheu","12.270555999999999","-16.165832999999999","60105","0","t","t"
"60106","60100","Casamance","12.571147","-16.713183999999998","60106","0","t","t"
"60108","60100","Gambia","13.453056","-16.577500000000001","60108","0","t","t"
"60109","60100","Gorée","14.668611","-17.399166999999998","60109","0","t","t"
"60110","60100","James Fort","13.306414999999999","-16.391007999999999","60110","0","t","t"
"60111","60100","Joal, or Saloum River","14.16667","-16.833333","60111","0","f","t"
"60113","60100","Portudal","14.438333","-17.012499999999999","60113","0","t","t"
"60114","60100","Portuguese Guinea","12.247882000000001","-15.801055","60114","0","t","t"
"60117","60100","Rio Grande","11.504897","-15.49403","60117","0","t","t"
"60119","60100","French Africa (Goree or Senegal)","15.383333","-16.783332999999999","60119","0","f","t"
"60126","60100","Cape Verde Islands","16.101804000000001","-22.938745000000001","60126","0","t","t"
"60128","60100","Madeira","32.633333","-16.899999999999999","60128","0","t","t"
"60199","60100","Senegambia and offshore Atlantic, port unspecified","15.383333","-16.783332999999999","60199","0","f","t"
"60201","60200","Banana Islands","8.1047349999999998","-13.228674","60201","0","t","t"
"60204","60200","Cacandia","10.782019999999999","-14.57","60204","0","f","t"
"60206","60200","Delagoa","-26.219667000000001","32.717255999999999","60206","0","t","t"
"60208","60200","Gallinhas","7.2601560000000003","-12.041572","60208","0","t","t"
"60210","60200","Iles de Los","9.4803859999999993","-13.795339999999999","60210","0","t","t"
"60211","60200","Iles Plantain","7.9124999999999996","-12.9877778","60211","0","f","t"
"60212","60200","Rio Nunez","10.582159000000001","-14.637899000000001","60212","0","t","t"
"60213","60200","Rio Pongo","10.137557899999999","-14.061568250000001","60213","0","t","t"
"60214","60200","Scarcies","8.9387190000000007","-13.214644","60214","0","t","t"
"60216","60200","Settra Kou","4.8991670000000003","-8.8458330000000007","60216","0","t","t"
"60217","60200","Sherbro","7.573245","-12.704151","60217","0","t","t"
"60302","60300","Bassa","5.9800000000000004","-10.149829280000001","60302","0","t","t"
"60307","60300","Cape Petit Mount","6.6469694480000001","-11.177712100000001","60307","0","t","t"
"60308","60300","Cape Grand Mount","6.7377560000000001","-11.358074","60308","0","t","t"
"60309","60300","Cape Lahou","5.1366670000000001","-5.0241670000000003","60309","0","t","t"
"60310","60300","Cess","5.3566149999999997","-9.4829190000000008","60310","0","t","t"
"60311","60300","Grand Cess","4.5713889999999999","-8.2200000000000006","60311","0","f","t"
"60314","60300","Drouin","4.9166670000000003","-6.1500000000000004","60314","0","f","t"
"60315","60300","Grand Bassa","5.911111","-10.0625","60315","0","t","t"
"60316","60300","Little Bassa","5.9711109999999996","-10.15","60316","0","f","t"
"60317","60300","Grand Bassam","5.2019440000000001","-3.7349999999999999","60317","0","t","t"
"60318","60300","Grand Junk","6.2368860000000002","-10.65381","60318","0","t","t"
"60319","60300","Little Junk","6.1901326409999999","-10.475325509999999","60319","0","t","t"
"60320","60300","Mano","6.983333","-11.283333000000001","60320","0","t","t"
"60321","60300","Grand Mesurado","6.3191249999999997","-10.809194","60321","0","t","t"
"60322","60300","Petit Mesurado","6.418551044","-10.812242660000001","60322","0","t","t"
"60324","60300","Rio Assini","5.1236110000000004","-3.2799999999999998","60324","0","f","t"
"60327","60300","River Kissey","8.5001320000000007","-13.120396","60327","0","t","t"
"60328","60300","Sassandra","4.9500000000000002","-6.0833329999999997","60328","0","t","t"
"60331","60300","St. Paul","6.380001","-10.792455","60331","0","t","t"
"60332","60300","Tabou","4.4166670000000003","-7.3499999999999996","60332","0","f","t"
"60333","60300","Trade Town","5.7999999999999998","-9.8499999999999996","60333","0","f","t"
"60334","60300","Liberia","6.3174999999999999","-10.779722","60334","0","f","t"
"60335","60300","Ivory Coast","5.1659459999999999","-4.8799999999999999","60335","0","f","t"
"60399","60300","Windward Coast, port unspecified","6.7040740489999999","-11.309052680000001","60399","0","f","t"
"60402","60400","Danish Gold Coast","5.5418880000000001","-0.19930100000000001","60402","0","t","t"
"60404","60400","Accra","5.5499999999999998","-0.216667","60404","0","t","t"
"60405","60400","Alampo","5.2907419999999998","-0.91589500000000001","60405","0","t","t"
"60409","60400","Apammin","5.2833329999999998","-0.73333300000000001","60409","0","t","t"
"60410","60400","Apollonia","4.9348859999999997","-2.3647170000000002","60410","0","t","t"
"60411","60400","Axim","4.8683329999999998","-2.2413889999999999","60411","0","t","t"
"60412","60400","Cape Coast Castle","5.1825089999999996","-1.1166160000000001","60412","0","t","t"
"60414","60400","Christiansborg","5.5499999999999998","-0.183333","60414","0","t","t"
"60415","60400","Elmina","5.0833329999999997","-1.3500000000000001","60415","0","t","t"
"60417","60400","Kormantine","5.2000000000000002","-1.0833330000000001","60417","0","t","t"
"60425","60400","Wiamba","5.3333329999999997","-0.61666699999999997","60425","0","t","t"
"60427","60400","Gold Coast east of Kormantine","5.3578419999999998","-0.56000000000000005","60427","0","f","t"
"60499","60400","Gold Coast, port unspecified","5.190771561","-1.0992010990000001","60499","0","f","t"
"60503","60500","Aghway","6.1988890000000003","1.48","60503","0","f","t"
"60506","60500","Ardra","6.4000000000000004","2.2000000000000002","60506","0","t","t"
"60507","60500","Badagry","6.4166670000000003","3.0499999999999998","60507","0","t","t"
"60508","60500","Dixcove","4.7999999999999998","-1.95","60508","0","t","t"
"60509","60500","Epe","6.4166670000000003","2.8833329999999999","60509","0","t","t"
"60510","60500","Popo","6.2633330000000003","1.6899999999999999","60510","0","t","t"
"60511","60500","Little Popo","6.233333","1.6000000000000001","60511","0","t","t"
"60512","60500","Grand Popo","6.2833329999999998","1.8333330000000001","60512","0","t","t"
"60514","60500","Jacquin","6.3698394289999998","2.5136383630000001","60514","0","t","t"
"60515","60500","Whydah","6.3666669999999996","2.0833330000000001","60515","0","t","t"
"60516","60500","Keta","5.9166670000000003","0.98333300000000001","60516","0","t","t"
"60517","60500","Lagos, Onim","6.4530560000000001","3.3958330000000001","60517","0","t","t"
"60521","60500","Oerê","5.75","5.0800000000000001","60521","0","f","t"
"60523","60500","Porto Novo","6.483333","2.6166670000000001","60523","0","t","t"
"60524","60500","Rio Forcados","5.386412","5.2800000000000002","60524","0","f","t"
"60526","60500","Rio Nun","4.3132770000000002","6.049582","60526","0","t","t"
"60599","60500","Bight of Benin, port unspecified","6.3666669999999996","2.0833330000000001","60599","0","f","t"
"60601","60600","Andony","4.4786450000000002","7.1900000000000004","60601","0","f","t"
"60604","60600","Bimbia","3.9544440000000001","9.2449999999999992","60604","0","t","t"
"60605","60600","Bonny","4.4333330000000002","7.1666670000000003","60605","0","t","t"
"60608","60600","Calabar","4.9500000000000002","8.3166670000000007","60608","0","t","t"
"60609","60600","Cameroons","3.9130850000000001","9.5806249999999995","60609","0","t","t"
"60610","60600","Cameroons River","3.9130850000000001","9.5806249999999995","60610","0","f","t"
"60612","60600","Cap Lopez","-0.62539599999999995","8.7115539999999996","60612","0","t","t"
"60613","60600","Cap Lopez And Cabo Santa Catarina","-0.62539599999999995","8.7115539999999996","60613","0","f","t"
"60615","60600","Corisco","0.91456800000000005","9.3170079999999995","60615","0","t","t"
"60619","60600","Formosa","4.3122069999999999","6.0258848","60619","0","t","t"
"60620","60600","Gabon","0.20738500000000001","9.8933689999999999","60620","0","t","t"
"60622","60600","New Calabar","4.5742000000000003","6.9757999999999996","60622","0","t","t"
"60624","60600","River Brass","4.3293910000000002","6.5070499999999996","60624","0","t","t"
"60625","60600","River del Rey","4.733333","8.6500000000000004","60625","0","t","t"
"60661","60600","Annobon","5.6325000000000003","-1.401389","60661","0","t","t"
"60668","60600","Princes Island","1.566667","7.3499999999999996","60668","0","t","t"
"60673","60600","São Tomé","0.33333299999999999","6.733333","60673","0","t","t"
"60676","60600","São Tomé or Princes Island","0.18609800000000001","6.6594740000000003","60676","0","t","t"
"60699","60600","Bight of Biafra and Gulf of Guinea Islands, port unspecified","4.4333330000000002","7.1666670000000003","60699","0","f","t"
"60703","60700","Ambriz","-7.8499999999999996","13.116667","60703","0","t","t"
"60704","60700","Ambrizete","-7.2333299999999996","12.869999999999999","60704","0","f","t"
"60707","60700","Benguela","-12.578333000000001","13.407222000000001","60707","0","t","t"
"60708","60700","Benguela Velho","-10.7333","13.75","60708","0","f","t"
"60709","60700","Boary","-4.7264630350000001","11.841434059999999","60709","0","t","t"
"60711","60700","Cabinda","-5.5499999999999998","12.199999999999999","60711","0","t","t"
"60715","60700","Coanza River","-9.3181080000000005","13.17567","60715","0","t","t"
"60717","60700","Congo River","-5.8946170000000002","12.971107999999999","60717","0","t","t"
"60718","60700","Rio Zaire","-5.8946170000000002","12.971107999999999","60718","0","f","t"
"60722","60700","Kilongo","-4.1097219999999997","11.349722","60722","0","t","t"
"60724","60700","Loango","-4.6519440000000003","11.8125","60724","0","t","t"
"60725","60700","Malembo","-5.3333329999999997","12.183332999999999","60725","0","t","t"
"60726","60700","Mayumba","-3.4166669999999999","10.65","60726","0","t","t"
"60730","60700","Nova Redonda","-11.199999999999999","13.833333","60730","0","t","t"
"60732","60700","Quicombo","-11.316667000000001","13.816667000000001","60732","0","t","t"
"60733","60700","Salinas","-12.614444000000001","13.350277999999999","60733","0","t","t"
"60735","60700","Rio Dande (N of Luanda)","-8.4666700000000006","13.35","60735","0","f","t"
"60799","60700","West Central Africa and St. Helena, port unspecified","-8.8383330000000004","13.234444","60799","0","f","t"
"60803","60800","Cape of Good Hope","-34.100000000000001","18.383333","60803","0","t","t"
"60806","60800","Ibo","-12.333333","40.583333000000003","60806","0","t","t"
"60807","60800","Inhambane","-23.864999999999998","35.383333","60807","0","t","t"
"60808","60800","Quirimba","-12.430277999999999","40.613056","60808","0","t","t"
"60809","60800","Kilwa","-8.75","39.399999999999999","60809","0","t","t"
"60810","60800","Lourenço Marques","-25.965278000000001","32.589167000000003","60810","0","t","t"
"60811","60800","Madagascar","-19.191103999999999","46.698771999999998","60811","0","t","t"
"60820","60800","Mozambique","-15.038455000000001","40.735759999999999","60820","0","t","t"
"60822","60800","Quilimane","-17.878610999999999","36.888333000000003","60822","0","t","t"
"60823","60800","Sofala","-20.155000000000001","34.731667000000002","60823","0","t","t"
"60826","60800","Zanzibar","-6.1666670000000003","39.183332999999998","60826","0","t","t"
"60831","60800","Mascarene Islands","-20.77758","56.642209999999999","60831","0","t","t"
"60833","60800","Ile de France","-20.328641600000001","57.560252140000003","60833","0","t","t"
"60836","60800","Johanna Island","-12.220000000000001","44.420000000000002","60836","0","f","t"
"60915","60900","Bights","4.2656530000000004","5.9900000000000002","60915","0","f","t"
"60734","60700","Luanda","-8.8383330000000004","13.234444","60734","0","t","t"
"80199","80100","East Indies, port unspecified","0","0","80199","0","f","f"
"80501","80500","Kingston, Savannah, Maryland","0","0","80501","0","f","f"
"80601","80600","Bengal","18.449999999999999","-77.450000000000003","80601","0","f","t"
"80604","80600","Basse Indres","47.200000000000003","-1.6699999999999999","80604","0","f","t"
"80703","80700","British plantations","0","0","80703","0","f","f"
"80704","80700","Non-British","0","0","80704","0","f","f"
"80705","80700","Captured by WIC","0","0","80705","0","f","f"
"80706","80700","Captured interloper","0","0","80706","0","f","f"
"80707","80700","Prize (unknown place)","0","0","80707","0","f","f"
"80708","80700","Prize (taken from Dutch)","0","0","80708","0","f","f"
"80709","80700","Prize (taken from French)","0","0","80709","0","f","f"
"80710","80700","Prize (taken from Spanish)","0","0","80710","0","f","f"
"80711","80700","Sold at sea to another vessel","0","0","80711","0","f","f"
"80712","80700","wreck","0","0","80712","0","f","f"
"32250","32200","Berbice","6.6712980000000002","-57.93","35303","0","t","t"
"10827","10800","Zaandam","0","0","10827","0","f","f"
"60209","60200","Garraway Roads","4.4969000000000001","-7.9330999999999996","60209","0","f","t"
"60408","60400","Anomabu","5.1666999999999996","-1.1167","60408","0","t","t"
"21004","21000","Oxford","38.700000000000003","-76.200000000000003","21004","0","t","t"
"36402","36400","Arcahaie","18.769439999999999","-72.512500000000003","36402","0","f","t"
"36403","36400","Cap Français","19.75","-72.203999999999994","36403","0","t","t"
"37099","37000","Danish West Indies, colony unspecified","18.02","-64.799999999999997","37099","0","f","t"
"60663","60600","Fernando Po","3.4900000000000002","8.6999999999999993","60663","0","f","t"
"10850","10800","Middelburg","51.5","3.6099999999999999","10850","0","t","t"
"36410","36400","Môle Saint Nicolas","19.800000000000001","-73.379999999999995","36410","0","f","t"
"41201","41200","New Spain","19.41","-99.159999999999997","41201","0","f","t"
"20199","20100","Rhode Island, port unspecified","41.490000000000002","-71.310000000000002","20199","0","f","t"
"50423","50400","Rio de Janeiro province","-23.02","-43.57","50423","0","f","t"
"50599","50500","Brazil, region unspecified","-16.550000000000001","-47.549999999999997","50599","0","f","t"
"50424","50400","Rio de Janeiro, Sao Paulo, Santa Catarina","-23.789999999999999","-45.990000000000002","50424","0","f","t"
"50102","50100","Maranhão","-2.516667","-44.266666999999998","50102","0","t","t"
"60129","60100","Azores","0","0","60129","0","f","t"
"60203","60200","Ben's Island","0","0","60203","0","f","t"
"60218","60200","Siraboom","0","0","60218","0","f","t"
"60303","60300","Batoa","0","0","60303","0","f","t"
"60304","60300","Bercou","0","0","60304","0","f","t"
"60305","60300","Cap des Palmes","0","0","60305","0","f","t"
"60312","60300","Petit Cess","0","0","60312","0","f","t"
"60313","60300","Dembia","0","0","60313","0","f","t"
"60325","60300","Rio Cavalie","0","0","60325","0","f","t"
"60326","60300","Rio Sinou","0","0","60326","0","f","t"
"60407","60400","Anomabu and Apam","0","0","60407","0","f","t"
"60413","60400","Chama","0","0","60413","0","f","t"
"60416","60400","Eva","0","0","60416","0","f","t"
"60418","60400","Lagoo","0","0","60418","0","f","t"
"60419","60400","Mouree","5.1632800000000003","-1.15828","60419","0","t","t"
"60420","60400","Ningo","0","0","60420","0","f","t"
"60421","60400","Rio Volta","0","0","60421","0","f","t"
"60422","60400","Sekondi","0","0","60422","0","f","t"
"60423","60400","Siekere","0","0","60423","0","f","t"
"60424","60400","Tantumquerry","0","0","60424","0","f","t"
"60426","60400","Gold Coast from Kormatine to Accra","5.3578419999999998","-0.56000000000000005","60426","0","f","t"
"60502","60500","Costa da Mina","0","0","60502","0","f","t"
"60504","60500","Agora","0","0","60504","0","f","t"
"60505","60500","Amokou","0","0","60505","0","f","t"
"60513","60500","Ife","0","0","60513","0","f","t"
"60519","60500","Lay","0","0","60519","0","f","t"
"60520","60500","Legas","0","0","60520","0","f","t"
"60522","60500","Pataquery","0","0","60522","0","f","t"
"60525","60500","Rio Nazareth","0","0","60525","0","f","t"
"60602","60600","Barabalemo","0","0","60602","0","f","t"
"60603","60600","Bilbay","0","0","60603","0","f","t"
"60607","60600","Bundy","0","0","60607","0","f","t"
"60611","60600","Cape Baxos","0","0","60611","0","f","t"
"60614","60600","Cape Lopez and Annobon","0","0","60614","0","f","t"
"60616","60600","Corisco and Princes Island","1.562854","7.4405010000000003","60616","0","t","t"
"60617","60600","Fockey","0","0","60617","0","f","t"
"60618","60600","Forke","0","0","60618","0","f","t"
"60621","60600","Liverpool River","0","0","60621","0","f","t"
"60623","60600","Quaqua","0","0","60623","0","f","t"
"60626","60600","Timbeys","0","0","60626","0","f","t"
"60660","60600","Gulf of Guinea islands","0","0","60660","0","f","t"
"60662","60600","Epee and Princes Islands","0","0","60662","0","f","t"
"60664","60600","Fernando Po and Cameroons","0","0","60664","0","f","t"
"60665","60600","Fernando Po and Princes Islands","0","0","60665","0","f","t"
"60666","60600","Juda and Princes Islands","0","0","60666","0","f","t"
"60667","60600","Juda, Epee, Princes Island, and Annobon","0","0","60667","0","f","t"
"60669","60600","Princes Island and Annobon","0","0","60669","0","f","t"
"60670","60600","Princes Island and Cape Lopez","0","0","60670","0","f","t"
"60671","60600","Princes Island and São Tomé","0.25573899999999999","6.5435160000000003","60671","0","t","t"
"60672","60600","Principe, Cap Lopez, Annobon","0","0","60672","0","f","t"
"60674","60600","São Tomé and Annobon","0","0","60674","0","f","t"
"60675","60600","São Tomé and Cape Lopez","0","0","60675","0","f","t"
"60677","60600","Costa de Africa (mainland coast around S Tome/Principe)","0","0","60677","0","f","t"
"60701","60700","Alecuba","0","0","60701","0","f","t"
"60702","60700","Ambona","0","0","60702","0","f","t"
"60705","60700","Barra de Cariba, Luanda","0","0","60705","0","f","t"
"60706","60700","Bengo","0","0","60706","0","f","t"
"60710","60700","Bomara","0","0","60710","0","f","t"
"60712","60700","Cabo Lopo Gonçalves","0","0","60712","0","f","t"
"60713","60700","Cape Mole","0","0","60713","0","f","t"
"60714","60700","Cape Padroon","0","0","60714","0","f","t"
"60719","60700","Grenada Point","0","0","60719","0","f","t"
"60720","60700","Iron Point","0","0","60720","0","f","t"
"60721","60700","Kacongo","0","0","60721","0","f","t"
"60723","60700","Liverpool River","0","0","60723","0","f","t"
"60727","60700","Metrueba","0","0","60727","0","f","t"
"60728","60700","Mossulo, Luanda","0","0","60728","0","f","t"
"60729","60700","Mpinda","-6.1369999999999996","12.513533000000001","60729","0","t","t"
"60731","60700","Penido","0","0","60731","0","f","t"
"60801","60800","Anghoza River","0","0","60801","0","f","t"
"60802","60800","Cabo Delgado","0","0","60802","0","f","t"
"60805","60800","Costa Leste Occidental","0","0","60805","0","f","t"
"60812","60800","Mauratan","0","0","60812","0","f","t"
"60813","60800","Morondova","0","0","60813","0","f","t"
"60814","60800","Port Dauphin","0","0","60814","0","f","t"
"60815","60800","St. Mary's Island","0","0","60815","0","f","t"
"60816","60800","Tulia","0","0","60816","0","f","t"
"60817","60800","Mocambo","0","0","60817","0","f","t"
"60819","60800","Momboza or Zanzibar","0","0","60819","0","f","t"
"60821","60800","Pomba, Monfia","0","0","60821","0","f","t"
"60824","60800","St. Lawrence","0","0","60824","0","f","t"
"60832","60800","Bourbon","0","0","60832","0","f","t"
"60834","60800","Port-Louis","0","0","60834","0","f","t"
"60837","60800","Mauritius (Ile de France)","0","0","60837","0","f","t"
"60838","60800","Ascension, Assomption, and Bourbon","0","0","60838","0","f","t"
"60899","60800","Southeast Africa and Indian Ocean islands, port unspecified","0","0","60899","0","f","t"
"60901","60900","Princes Island and Elmina","0","0","60901","0","f","t"
"60902","60900","Angola (possibly New Calabar)","0","0","60902","0","f","t"
"60903","60900","Senegambia or Sierra Leone","0","0","60903","0","f","t"
"60908","60900","West of Cape Apolonia","0","0","60908","0","f","t"
"60909","60900","Angola to Ardra","0","0","60909","0","f","t"
"60912","60900","Windward + Ivory + Gold + Benin","0","0","60912","0","f","t"
"60913","60900","C.C. Castle and Windward","0","0","60913","0","f","t"
"60914","60900","Gold Coast + Bight of Benin + Bight of Biafra","0","0","60914","0","f","t"
"60981","60900","Causacoo (location undetermined)","0","0","60981","0","f","t"
"60982","60900","Cape St Martha (location undetermined)","0","0","60982","0","f","t"
"21399","21300","South Carolina, port unspecified","32.780962000000002","-79.935535000000002","21399","0","f","t"
"21999","21900","USA, location unspecified","32.780963","-79.935535000000002","21999","0","f","t"
"21904","21900","Carolinas","32.780963999999997","-79.935535000000002","21904","0","f","t"
"10199","10100","Spain, port unspecified","36.533611999999998","-6.2994440000000003","10199","0","f","t"
"10113","10100","Vigo","42.233330000000002","-8.7200000000000006","10113","0","f","t"
"20699","20600","New York","40.714579999999998","-74.007080000000002","20699","0","t","t"
"32130","32100","Bonaire","12.199999999999999","-68.5","32130","0","f","t"
"33599","33500","St. Kitts, port unspecified","17.300000000000001","-62.716670000000001","33599","0","t","t"
"34299","34200","Barbados, port unspecified","13.1","-59.600000000000001","34299","0","t","t"
"36299","36200","Guadeloupe, port unspecified","16","-61.716667000000001","36299","0","f","t"
"37010","37000","St. Croix","17.773050000000001","-64.819999999999993","37010","0","t","t"
"37020","37000","St. Thomas","18.34141","-64.939999999999998","37020","0","t","t"
"50299","50200","Bahia, port unspecified","-12.971109999999999","-38.510829999999999","50299","0","t","t"
"50399","50300","Pernambuco, port unspecified","-8.0538900000000009","-34.88111","50399","0","t","t"
"31299","31200","Puerto Rico, port unspecified","18.466329999999999","-66.105720000000005","31299","0","t","t"
"31399","31300","Cuba, port unspecified","21.771574000000001","-78.920867000000001","31399","0","f","t"
"33299","33200","Tortola, port unspecified","18.34732","-64.719999999999999","33299","0","t","t"
"33799","33700","Montserrat, port unspecified","16.699999999999999","-62.216670000000001","33799","0","t","t"
"33899","33800","Dominica, port unspecified","15.300000000000001","-61.399999999999999","33899","0","t","t"
"34199","34100","St. Lucia, port unspecified","14","-61","34199","0","t","t"
"34399","34300","St. Vincent, port unspecified","13.133330000000001","-61.216670000000001","34399","0","t","t"
"34499","34400","Grenada, port unspecified","12.050000000000001","-61.75","34499","0","t","t"
"34599","34500","Trinidad, port unspecified","10.65","-61.516669999999998","34599","0","t","t"
"60716","60700","Congo North","-3.15469","10.380000000000001","60716","0","t","t"
"60983","60900","Casnasonis (location undetermined)","0","0","60983","0","f","f"
"60984","60900","Massa (location undetermined)","0","0","60984","0","f","f"
"60985","60900","Touau-Toro (location undetermined)","0","0","60985","0","f","f"
"60986","60900","Cape Logas (location undetermined)","0","0","60986","0","f","f"
"60999","60900","Africa., port unspecified","0","0","60999","0","f","f"
"60916","60900","Windward Coast (Nunez - Assini)","0","0","60916","0","f","f"
"60917","60900","Gold Coast, Fr. definition","0","0","60917","0","f","f"
"80299","80200","Americas, port unspecified","0","0","80299","0","f","f"
"80399","80300","Asia e Africa, port unspecified","0","0","80399","0","f","f"
"80499","80400","Spanish Americas, port unspecified","0","0","80499","0","f","f"
"80599","80500","British Americas, port unspecified","0","0","80599","0","f","f"
"80602","80600","Goa","0","0","80602","0","f","f"
"80603","80600","Calcutta","0","0","80603","0","f","f"
"60112","60100","Oibo","0","0","60112","0","f","f"
"60115","60100","Rio Bolola","0","0","60115","0","f","f"
"60116","60100","Rio Bramiah","0","0","60116","0","f","f"
"60127","60100","Santa Catarina do Fogo","0","0","60127","0","f","f"
"60518","60500","Lamo River","0","0","60518","0","f","f"
"32240","32200","Suriname","5.9585939999999997","-55.675989999999999","32240","0","t","t"
"60501","60500","Benin","6.3175999999999997","5.6144999999999996","60501","0","t","t"
"33401","33400","Saint John (Antigua)","17.116669999999999","-61.850000000000001","33401","0","t","t"
"33601","33600","Newcastle (Nevis)","17.199999999999999","-62.583333000000003","33601","0","t","t"
"35509","35500","Hamilton (Bermuda)","32.294167000000002","-64.783889000000002","60123","0","t","t"
"35508","35500","Bermuda","32.294167000000002","-64.783889000000002","60122","0","f","t"
"10716","10700","Marseilles","43.299999999999997","5.4000000000000004","10716","0","t","t"
"10438","10400","New Shoreham","50.833333000000003","-0.23333300000000001","10438","0","f","f"
"10462","10400","Shoreham","50.833333000000003","-0.23333300000000001","10462","0","f","t"
"50204","50200","Taipu","-5.6166669999999996","-35.600000000000001","50204","0","f","t"
"41215","41200","Margarita","10.949999999999999","-64.079999999999998","41215","0","f","t"
"35299","35200","Bahamas, port unspecified","26.533329999999999","-78.700000000000003","35299","0","f","t"
"41204","41200","Guatemala","15.800000000000001","-88.700000000000003","41204","0","t","t"
"31308","31300","Cuba, south coast","19.950762999999998","-75.738106000000002","31308","0","t","t"
"35110","35100","Port Royal","17.933299999999999","-76.920000000000002","35110","0","t","t"
"38199","38100","St. Barthélemy, port unspecified","17.899999999999999","-62.833329999999997","38199","0","t","t"
"36199","36100","Martinique, port unspecified","14.633330000000001","-61.166670000000003","36199","0","t","t"
"60740","60700","St. Helena","-15.57","-5.4199999999999999","60740","0","t","t"
"60107","60100","Galam","0","0","60107","0","f","f"
"60118","60100","Saint-Louis","16.120000000000001","-16.5","60118","0","t","t"
"21504","21500","Key West","24.559166000000001","-81.784030999999999","21504","0","t","t"
"60207","60200","Freetown","8.4900000000000002","-13.23","60207","0","t","t"
"60299","60200","Sierra Leone, port unspecified","8.3000000000000007","-13.23","60299","0","f","t"
"99801","99800","???","0","0","99801","0","f","f"
"21699","21600","Gulf Coast, port unspecifed","29.52468","-92.670000000000002","21699","0","f","f"
"10206","10200","Setubal","38.524500000000003","-8.8930699999999998","10206","0","f","f"
"10852","10800","Veere","51.545099999999998","3.6640700000000002","10852","0","f","f"
"10903","10900","Elsineur","56.036299999999997","12.6135","10903","0","f","f"
"11103","11100","Brugge","51.209400000000002","0.22524","11103","0","f","f"
"21404","21400","Cumberland Island,Georgia","30.851099999999999","81.448400000000007","21404","0","f","f"
"36415","36400","Île à Vache","18.069400000000002","-73.651200000000003","36415","0","f","f"
"38101","38100","Gustavia, St. Bartholomew","17.900200000000002","-62.831699999999998","38101","0","f","f"
"60220","60200","Sierra Leone estuary","6.4961339999999996","-13.170658","60220","0","f","f"
"60741","60700","Soyo","-6.1299599999999996","12.370900000000001","60741","0","f","f"
"20303","20300","North Hampton","42.957180000000001","-70.778049999999993","25303","0","f","f"
"21403","21400","Tybee Island","32.000214999999997","-80.845665999999994","21403","0","f","f"
"11601","11600","Sardinia","0","0","11601","0","f","f"
"31326","31300","Batabanó  ","0","0","31326","0","f","f"
"60301","60300","Barason","0","0","60301","0","f","f"
"60336","60300","Young Sestos","0","0","60336","0","f","f"
"60337","60300","Little Sestos","0","0","60337","0","f","f"
"60338","60300","Kru Settra","0","0","60338","0","f","f"
"60339","60300","Cape Palmas","0","0","60339","0","f","f"
"60403","60400","Acoda  (Akka or Acquida)","0","0","60403","0","f","f"
"60429","60400","Boutry","0","0","60429","0","f","f"
"60530","60500","Bristol Island, Nazareth","0","0","60530","0","f","f"
"60340","60300","Settra Kru","0","0","60340","0","f","f"
"60241","60200","Mano","6.983333","-11.283333000000001","60241","0","t","t"
"60242","60200","River Kissey","8.5001320000000007","-13.120396","60242","0","t","t"
"60627","60600","Rio Nazareth","0","0","60525","0","f","t"
"60428","60400","Pokesoe (Princes Town)","4.7936100000000001","-2.1347200000000002","60428","0","f","f"
"60329","60300","Grand Sestos","5.8518280000000003","-10.034141999999999","60329","0","t","t"
"60330","60300","Rock Sestos","5.8518280000000003","-10.034141999999999","60330","0","f","t"
"60205","60200","Côte de Malaguette (runs through to Cape Palmas on Windward Coast)","5.783061","-10.949999999999999","60205","0","f","t"
"60202","60200","Bance Island (Ben's Island)","8.570506","-13.003558","60202","0","t","t"
"60306","60300","Cape Mount (Cape Grand Mount)","6.7040740489999999","-11.309052680000001","60306","0","t","t"
"60219","60200","Sugary (Siekere)","6.8466670000000001","-11.390000000000001","60219","0","f","t"
"31199","31100","Hispaniola, unspecified","18.466670000000001","-69.900000000000006","31199","0","t","t"
"31499","31400","Spanish Caribbean, unspecified","18.466670000000001","-69.900000000000006","31499","0","f","t"
"41299","41200","Spanish Circum-Caribbean,unspecified","9.0299999999999994","-76.260000000000005","41299","0","f","t"
"41203","41200","Veracruz","19.170000000000002","-96.129999999999995","41203","0","t","t"
"41214","41200","La Guaira","10.6","-66.933300000000003","41214","0","t","t"
"31107","31100","Ocoa","0","0","31107","0","f","f"
"31108","31100","Nizao","0","0","31108","0","f","f"
"31109","31100","Puerto de Plata","0","0","31109","0","f","f"
"31110","31100","Isla Saona","0","0","31110","0","f","f"
"31327","31300","Baracoa","0","0","31327","0","f","f"
"31106","31100","Santo Domingo (port)","0","0","31106","0","f","f"
"31328","31300","Punta Macurijes","0","0","31328","0","f","f"
